{
"type": "FeatureCollection",
"name": "zinka_outbreak",
"crs": { "type": "name", "properties": { "name": "urn:ogc:def:crs:EPSG::4269" } },
"features": [
{ "type": "Feature", "properties": { "OBJECTID": 4, "NAME": "Virginia", "1": "1", "2": "5", "3": "8", "4": "13", "5": "20", "6": "33", "7": "57", "8": "78", "9": "86", "10": "86", "11": "95" }, "geometry": { "type": "Point", "coordinates": [ -78.81225172753517, 37.515016457543538 ] } },
{ "type": "Feature", "properties": { "OBJECTID": 8, "NAME": "Massachusetts", "1": "2", "2": "3", "3": "7", "4": "10", "5": "20", "6": "39", "7": "54", "8": "67", "9": "93", "10": "93", "11": "106" }, "geometry": { "type": "Point", "coordinates": [ -71.79863859759314, 42.253293769891627 ] } },
{ "type": "Feature", "properties": { "OBJECTID": 10, "NAME": "Florida", "1": "9", "2": "42", "3": "78", "4": "95", "5": "132", "6": "206", "7": "322", "8": "571", "9": "707", "10": "707", "11": "785" }, "geometry": { "type": "Point", "coordinates": [ -82.497465745147963, 28.628439632982747 ] } },
{ "type": "Feature", "properties": { "OBJECTID": 14, "NAME": "Puerto Rico", "1": "1", "2": "1", "3": "2", "4": "2", "5": "3", "6": "7", "7": "22", "8": "59", "9": "75", "10": "75", "11": "124" }, "geometry": { "type": "Point", "coordinates": [ -66.465017218769617, 18.222032959053877 ] } },
{ "type": "Feature", "properties": { "OBJECTID": 16, "NAME": "Texas", "1": "8", "2": "15", "3": "27", "4": "30", "5": "40", "6": "53", "7": "89", "8": "161", "9": "218", "10": "218", "11": "268" }, "geometry": { "type": "Point", "coordinates": [ -99.350689060651575, 31.484458994786849 ] } },
{ "type": "Feature", "properties": { "OBJECTID": 17, "NAME": "California", "1": "2", "2": "10", "3": "29", "4": "40", "5": "48", "6": "69", "7": "87", "8": "210", "9": "277", "10": "277", "11": "375" }, "geometry": { "type": "Point", "coordinates": [ -119.610695847635213, 37.246072746360198 ] } },
{ "type": "Feature", "properties": { "OBJECTID": 19, "NAME": "Georgia", "1": "1", "2": "2", "3": "11", "4": "13", "5": "17", "6": "29", "7": "42", "8": "75", "9": "86", "10": "86", "11": "104" }, "geometry": { "type": "Point", "coordinates": [ -83.446337956531409, 32.649222843259679 ] } },
{ "type": "Feature", "properties": { "OBJECTID": 30, "NAME": "Illinois", "1": "3", "2": "5", "3": "10", "4": "13", "5": "16", "6": "23", "7": "33", "8": "51", "9": "75", "10": "75", "11": "85" }, "geometry": { "type": "Point", "coordinates": [ -89.198409164651196, 40.065007827948932 ] } },
{ "type": "Feature", "properties": { "OBJECTID": 37, "NAME": "District of Columbia", "1": "3", "2": "3", "3": "3", "4": "3", "5": "6", "6": "7", "7": "10", "8": "11", "9": "25", "10": "25", "11": "27" }, "geometry": { "type": "Point", "coordinates": [ -77.016293838389913, 38.904733935622687 ] } },
{ "type": "Feature", "properties": { "OBJECTID": 40, "NAME": "New Jersey", "1": "1", "2": "1", "3": "5", "4": "9", "5": "17", "6": "45", "7": "50", "8": "91", "9": "133", "10": "133", "11": "164" }, "geometry": { "type": "Point", "coordinates": [ -74.660776391717093, 40.184442026078671 ] } },
{ "type": "Feature", "properties": { "OBJECTID": 43, "NAME": "Hawaii", "1": "3", "2": "4", "3": "5", "4": "7", "5": "10", "6": "10", "7": "10", "8": "11", "9": "14", "10": "14", "11": "14" }, "geometry": { "type": "Point", "coordinates": [ -156.363018400178987, 20.254707826904735 ] } },
{ "type": "Feature", "properties": { "OBJECTID": 53, "NAME": "Arkansas", "1": "1", "2": "1", "3": "1", "4": "2", "5": "5", "6": "5", "7": "5", "8": "9", "9": "10", "10": "10", "11": "13" }, "geometry": { "type": "Point", "coordinates": [ -92.439261142787473, 34.899738996557517 ] } },
{ "type": "Feature", "properties": { "OBJECTID": 55, "NAME": "Minnesota", "1": "1", "2": "3", "3": "12", "4": "17", "5": "17", "6": "21", "7": "29", "8": "39", "9": "47", "10": "47", "11": "55" }, "geometry": { "type": "Point", "coordinates": [ -94.30903060377932, 46.31649002769268 ] } },
{ "type": "Feature", "properties": { "OBJECTID": 2, "NAME": "North Carolina", "1": "NULL", "2": "2", "3": "8", "4": "11", "5": "11", "6": "17", "7": "30", "8": "52", "9": "66", "10": "66", "11": "83" }, "geometry": { "type": "Point", "coordinates": [ -79.372376936146622, 35.54152712107981 ] } },
{ "type": "Feature", "properties": { "OBJECTID": 6, "NAME": "Louisiana", "1": "NULL", "2": "1", "3": "4", "4": "4", "5": "4", "6": "6", "7": "9", "8": "26", "9": "32", "10": "32", "11": "35" }, "geometry": { "type": "Point", "coordinates": [ -91.985655838046455, 31.058401374024243 ] } },
{ "type": "Feature", "properties": { "OBJECTID": 7, "NAME": "Michigan", "1": "NULL", "2": "1", "3": "2", "4": "3", "5": "7", "6": "10", "7": "17", "8": "45", "9": "60", "10": "60", "11": "63" }, "geometry": { "type": "Point", "coordinates": [ -85.43722241078558, 44.350692678124631 ] } },
{ "type": "Feature", "properties": { "OBJECTID": 11, "NAME": "Nebraska", "1": "NULL", "2": "2", "3": "2", "4": "2", "5": "2", "6": "2", "7": "4", "8": "8", "9": "11", "10": "11", "11": "13" }, "geometry": { "type": "Point", "coordinates": [ -99.810800005315969, 41.527141927757839 ] } },
{ "type": "Feature", "properties": { "OBJECTID": 12, "NAME": "Washington", "1": "NULL", "2": "1", "3": "2", "4": "2", "5": "4", "6": "9", "7": "16", "8": "28", "9": "34", "10": "34", "11": "58" }, "geometry": { "type": "Point", "coordinates": [ -120.446851879310771, 47.380963073387193 ] } },
{ "type": "Feature", "properties": { "OBJECTID": 18, "NAME": "Alabama", "1": "NULL", "2": "1", "3": "2", "4": "2", "5": "2", "6": "2", "7": "11", "8": "24", "9": "27", "10": "27", "11": "30" }, "geometry": { "type": "Point", "coordinates": [ -86.828367086871538, 32.789826052630303 ] } },
{ "type": "Feature", "properties": { "OBJECTID": 22, "NAME": "Colorado", "1": "NULL", "2": "2", "3": "2", "4": "2", "5": "4", "6": "10", "7": "19", "8": "27", "9": "36", "10": "36", "11": "50" }, "geometry": { "type": "Point", "coordinates": [ -105.547814568587455, 38.9985455412438 ] } },
{ "type": "Feature", "properties": { "OBJECTID": 24, "NAME": "Tennessee", "1": "NULL", "2": "1", "3": "1", "4": "2", "5": "4", "6": "10", "7": "22", "8": "38", "9": "52", "10": "52", "11": "58" }, "geometry": { "type": "Point", "coordinates": [ -86.343375476896711, 35.84298030349828 ] } },
{ "type": "Feature", "properties": { "OBJECTID": 26, "NAME": "New York", "1": "NULL", "2": "23", "3": "55", "4": "89", "5": "164", "6": "285", "7": "491", "8": "661", "9": "837", "10": "837", "11": "942" }, "geometry": { "type": "Point", "coordinates": [ -75.50311619685499, 42.940381486916124 ] } },
{ "type": "Feature", "properties": { "OBJECTID": 32, "NAME": "Montana", "1": "NULL", "2": "1", "3": "1", "4": "1", "5": "1", "6": "1", "7": "1", "8": "7", "9": "7", "10": "7", "11": "7" }, "geometry": { "type": "Point", "coordinates": [ -109.645131233419647, 47.033463032892712 ] } },
{ "type": "Feature", "properties": { "OBJECTID": 33, "NAME": "Iowa", "1": "NULL", "2": "3", "3": "4", "4": "5", "5": "7", "6": "9", "7": "9", "8": "15", "9": "16", "10": "16", "11": "19" }, "geometry": { "type": "Point", "coordinates": [ -93.500057509046769, 42.074619342708559 ] } },
{ "type": "Feature", "properties": { "OBJECTID": 41, "NAME": "Maryland", "1": "NULL", "2": "3", "3": "6", "4": "17", "5": "21", "6": "31", "7": "54", "8": "89", "9": "102", "10": "102", "11": "125" }, "geometry": { "type": "Point", "coordinates": [ -76.772452386368514, 39.036914473324316 ] } },
{ "type": "Feature", "properties": { "OBJECTID": 44, "NAME": "Delaware", "1": "NULL", "2": "1", "3": "3", "4": "3", "5": "4", "6": "5", "7": "10", "8": "11", "9": "15", "10": "15", "11": "17" }, "geometry": { "type": "Point", "coordinates": [ -75.500402273146335, 38.987008595570273 ] } },
{ "type": "Feature", "properties": { "OBJECTID": 49, "NAME": "Ohio", "1": "NULL", "2": "5", "3": "9", "4": "12", "5": "14", "6": "21", "7": "26", "8": "36", "9": "53", "10": "53", "11": "75" }, "geometry": { "type": "Point", "coordinates": [ -82.790057034204722, 40.291444390146523 ] } },
{ "type": "Feature", "properties": { "OBJECTID": 51, "NAME": "Oregon", "1": "NULL", "2": "5", "3": "6", "4": "6", "5": "6", "6": "7", "7": "14", "8": "19", "9": "27", "10": "27", "11": "39" }, "geometry": { "type": "Point", "coordinates": [ -120.555387550594958, 43.936647274951838 ] } },
{ "type": "Feature", "properties": { "OBJECTID": 54, "NAME": "Indiana", "1": "NULL", "2": "2", "3": "6", "4": "6", "5": "7", "6": "10", "7": "20", "8": "32", "9": "38", "10": "38", "11": "47" }, "geometry": { "type": "Point", "coordinates": [ -86.275655826255331, 39.908070687312431 ] } },
{ "type": "Feature", "properties": { "OBJECTID": 1, "NAME": "Mississippi", "1": "NULL", "2": "NULL", "3": "2", "4": "3", "5": "3", "6": "5", "7": "14", "8": "20", "9": "23", "10": "23", "11": "23" }, "geometry": { "type": "Point", "coordinates": [ -89.665208048112902, 32.750860611028429 ] } },
{ "type": "Feature", "properties": { "OBJECTID": 3, "NAME": "Oklahoma", "1": "NULL", "2": "NULL", "3": "3", "4": "4", "5": "5", "6": "12", "7": "13", "8": "20", "9": "27", "10": "27", "11": "29" }, "geometry": { "type": "Point", "coordinates": [ -97.508284815691638, 35.583479431530577 ] } },
{ "type": "Feature", "properties": { "OBJECTID": 5, "NAME": "West Virginia", "1": "NULL", "2": "NULL", "3": "5", "4": "6", "5": "6", "6": "6", "7": "9", "8": "11", "9": "11", "10": "11", "11": "11" }, "geometry": { "type": "Point", "coordinates": [ -80.613727538395153, 38.642579172390924 ] } },
{ "type": "Feature", "properties": { "OBJECTID": 21, "NAME": "Missouri", "1": "NULL", "2": "NULL", "3": "2", "4": "3", "5": "4", "6": "6", "7": "10", "8": "26", "9": "27", "10": "27", "11": "36" }, "geometry": { "type": "Point", "coordinates": [ -92.47740335937749, 38.36760618227953 ] } },
{ "type": "Feature", "properties": { "OBJECTID": 23, "NAME": "Utah", "1": "NULL", "2": "NULL", "3": "2", "4": "2", "5": "2", "6": "3", "7": "6", "8": "12", "9": "15", "10": "15", "11": "19" }, "geometry": { "type": "Point", "coordinates": [ -111.678216239787616, 39.323816945195915 ] } },
{ "type": "Feature", "properties": { "OBJECTID": 27, "NAME": "Kansas", "1": "NULL", "2": "NULL", "3": "1", "4": "1", "5": "2", "6": "5", "7": "8", "8": "13", "9": "15", "10": "15", "11": "17" }, "geometry": { "type": "Point", "coordinates": [ -98.380204805007736, 38.484701493778971 ] } },
{ "type": "Feature", "properties": { "OBJECTID": 29, "NAME": "Nevada", "1": "NULL", "2": "NULL", "3": "2", "4": "2", "5": "6", "6": "7", "7": "11", "8": "14", "9": "14", "10": "14", "11": "18" }, "geometry": { "type": "Point", "coordinates": [ -116.655212213073128, 39.356237411427458 ] } },
{ "type": "Feature", "properties": { "OBJECTID": 35, "NAME": "New Hampshire", "1": "NULL", "2": "NULL", "3": "2", "4": "3", "5": "4", "6": "4", "7": "8", "8": "8", "9": "10", "10": "10", "11": "12" }, "geometry": { "type": "Point", "coordinates": [ -71.577593304687241, 43.685622842420287 ] } },
{ "type": "Feature", "properties": { "OBJECTID": 36, "NAME": "Arizona", "1": "NULL", "2": "NULL", "3": "1", "4": "1", "5": "2", "6": "6", "7": "10", "8": "22", "9": "36", "10": "36", "11": "51" }, "geometry": { "type": "Point", "coordinates": [ -111.664407332332473, 34.293104616285063 ] } },
{ "type": "Feature", "properties": { "OBJECTID": 42, "NAME": "Maine", "1": "NULL", "2": "NULL", "3": "1", "4": "2", "5": "6", "6": "6", "7": "9", "8": "11", "9": "11", "10": "11", "11": "13" }, "geometry": { "type": "Point", "coordinates": [ -69.226647296335614, 45.371424209459747 ] } },
{ "type": "Feature", "properties": { "OBJECTID": 48, "NAME": "Kentucky", "1": "NULL", "2": "NULL", "3": "3", "4": "5", "5": "6", "6": "7", "7": "10", "8": "20", "9": "24", "10": "24", "11": "24" }, "geometry": { "type": "Point", "coordinates": [ -85.290420935377824, 37.526632307934733 ] } },
{ "type": "Feature", "properties": { "OBJECTID": 56, "NAME": "Connecticut", "1": "NULL", "2": "NULL", "3": "1", "4": "1", "5": "1", "6": "27", "7": "39", "8": "58", "9": "58", "10": "58", "11": "58" }, "geometry": { "type": "Point", "coordinates": [ -72.725639361567232, 41.620370814961177 ] } },
{ "type": "Feature", "properties": { "OBJECTID": 13, "NAME": "New Mexico", "1": "NULL", "2": "NULL", "3": "NULL", "4": "1", "5": "3", "6": "3", "7": "3", "8": "4", "9": "7", "10": "7", "11": "9" }, "geometry": { "type": "Point", "coordinates": [ -106.108378765967245, 34.421365185454988 ] } },
{ "type": "Feature", "properties": { "OBJECTID": 31, "NAME": "Vermont", "1": "NULL", "2": "NULL", "3": "NULL", "4": "1", "5": "1", "6": "2", "7": "6", "8": "7", "9": "7", "10": "7", "11": "10" }, "geometry": { "type": "Point", "coordinates": [ -72.662648129507545, 44.075186888264341 ] } },
{ "type": "Feature", "properties": { "OBJECTID": 34, "NAME": "South Carolina", "1": "NULL", "2": "NULL", "3": "NULL", "4": "1", "5": "1", "6": "6", "7": "28", "8": "31", "9": "31", "10": "31", "11": "54" }, "geometry": { "type": "Point", "coordinates": [ -80.896136497301484, 33.907967653184699 ] } },
{ "type": "Feature", "properties": { "OBJECTID": 47, "NAME": "Rhode Island", "1": "NULL", "2": "NULL", "3": "NULL", "4": "NULL", "5": "4", "6": "16", "7": "18", "8": "29", "9": "32", "10": "32", "11": "35" }, "geometry": { "type": "Point", "coordinates": [ -71.553611339991335, 41.676072863771708 ] } },
{ "type": "Feature", "properties": { "OBJECTID": 50, "NAME": "Wisconsin", "1": "NULL", "2": "NULL", "3": "NULL", "4": "NULL", "5": "2", "6": "2", "7": "17", "8": "24", "9": "40", "10": "40", "11": "48" }, "geometry": { "type": "Point", "coordinates": [ -90.011717943128531, 44.638045785884344 ] } },
{ "type": "Feature", "properties": { "OBJECTID": 52, "NAME": "North Dakota", "1": "NULL", "2": "NULL", "3": "NULL", "4": "NULL", "5": "NULL", "6": "NULL", "7": "1", "8": "1", "9": "2", "10": "2", "11": "2" }, "geometry": { "type": "Point", "coordinates": [ -100.469310937849457, 47.446330755859776 ] } },
{ "type": "Feature", "properties": { "OBJECTID": 9, "NAME": "Idaho", "1": "NULL", "2": "NULL", "3": "NULL", "4": "NULL", "5": "NULL", "6": "NULL", "7": "NULL", "8": "2", "9": "3", "10": "3", "11": "4" }, "geometry": { "type": "Point", "coordinates": [ -114.659395909093917, 44.389109747317036 ] } },
{ "type": "Feature", "properties": { "OBJECTID": 15, "NAME": "South Dakota", "1": "NULL", "2": "NULL", "3": "NULL", "4": "NULL", "5": "NULL", "6": "NULL", "7": "NULL", "8": "1", "9": "2", "10": "2", "11": "2" }, "geometry": { "type": "Point", "coordinates": [ -100.230502290748063, 44.436151509184867 ] } },
{ "type": "Feature", "properties": { "OBJECTID": 25, "NAME": "Wyoming", "1": "NULL", "2": "NULL", "3": "NULL", "4": "NULL", "5": "NULL", "6": "NULL", "7": "NULL", "8": "NULL", "9": "2", "10": "2", "11": "2" }, "geometry": { "type": "Point", "coordinates": [ -107.551362248868656, 42.999555777677074 ] } },
{ "type": "Feature", "properties": { "OBJECTID": 20, "NAME": "Pennsylvania", "1": "NULL", "2": "5", "3": "12", "4": "17", "5": "23", "6": "NULL", "7": "NULL", "8": "NULL", "9": "NULL", "10": "NULL", "11": "NULL" }, "geometry": { "type": "Point", "coordinates": [ -77.799585741688588, 40.873831914011703 ] } },
{ "type": "Feature", "properties": { "OBJECTID": 28, "NAME": "Alaska", "1": "NULL", "2": "NULL", "3": "NULL", "4": "NULL", "5": "NULL", "6": "NULL", "7": "NULL", "8": "NULL", "9": "NULL", "10": "NULL", "11": "NULL" }, "geometry": { "type": "Point", "coordinates": [ -152.221107824666348, 64.2176257322418 ] } },
{ "type": "Feature", "properties": { "OBJECTID": 45, "NAME": "Guam", "1": "NULL", "2": "NULL", "3": "NULL", "4": "NULL", "5": "NULL", "6": "NULL", "7": "NULL", "8": "NULL", "9": "NULL", "10": "NULL", "11": "NULL" }, "geometry": { "type": "Point", "coordinates": [ 144.774147551868055, 13.443758208774341 ] } },
{ "type": "Feature", "properties": { "OBJECTID": 46, "NAME": "Commonwealth of the Northern Mariana Islands", "1": "NULL", "2": "NULL", "3": "NULL", "4": "NULL", "5": "NULL", "6": "NULL", "7": "NULL", "8": "NULL", "9": "NULL", "10": "NULL", "11": "NULL" }, "geometry": { "type": "Point", "coordinates": [ 145.607680101955225, 15.922154623936819 ] } }
]
}
